{
"type": "FeatureCollection",
"crs": { "type": "name", "properties": { "name": "urn:ogc:def:crs:OGC:1.3:CRS84" } },
"features": [
{ "type": "Feature", "properties": { "Name": "Akzo Nobel, Arnhem", "Description": "<div dir=\"ltr\">Akzo Nobel Twincenter,<br>aka i4Networks\/Netlogics,<br>Velperweg 76,<br>6824 BM,<br>aka Tivolilaan 205, 6824 BV,<br>Arnhem<br>&nbsp;<\/div>" }, "geometry": { "type": "Point", "coordinates": [ 5.931458, 51.986706, 0.0 ] } },
{ "type": "Feature", "properties": { "Name": "Alticom, Alphen a\/d Rijn", "Description": "<div dir=\"ltr\">Alticom Alphen a\/d Rijn,<br>Energieweg 6,<br>2404 HE,<br>Alphen aan Den Rijn,<br>The Netherlands<br><\/div>" }, "geometry": { "type": "Point", "coordinates": [ 4.646471, 52.136967, 0.0 ] } },
{ "type": "Feature", "properties": { "Name": "Alticom, Goes", "Description": "<div dir=\"ltr\">Alticom Goes,<br>Cornelisweg 10,<br>4463 AK,<br>Goes,<br>The Netherlands<br><\/div>" }, "geometry": { "type": "Point", "coordinates": [ 3.885091, 51.511402, 0.0 ] } },
{ "type": "Feature", "properties": { "Name": "Alticom, Hilversum", "Description": "<div dir=\"ltr\">Alticom Hilversum.<br>Witte Kruislaan 47<br>Hilversum,<br>1217 AM,<br>The Netherlands<\/div>" }, "geometry": { "type": "Point", "coordinates": [ 5.164556, 52.242657, 0.0 ] } },
{ "type": "Feature", "properties": { "Name": "Alticom, Lelystad", "Description": "<div dir=\"ltr\">Alticom Lelystad,<br>Oostvaardersdijk 1a,<br>8243 PA,<br>Lelystad,<br>The Netherlands<br><\/div>" }, "geometry": { "type": "Point", "coordinates": [ 5.437787, 52.526119, 0.0 ] } },
{ "type": "Feature", "properties": { "Name": "Alticom, Loon op Zand", "Description": "<div dir=\"ltr\">Alticom Loon op Zand,<br>Finantien 4,<br>5175 NW,<br>Loon op Zand,<br>The Netherlands<br><\/div>" }, "geometry": { "type": "Point", "coordinates": [ 5.077089, 51.607288, 0.0 ] } },
{ "type": "Feature", "properties": { "Name": "Alticom, Lopik", "Description": "<div dir=\"ltr\">Alticom Lopik,<br>Biezendijk,<br>3412 KB,<br>Lopikerkapel,<br>The Netherlands<br><\/div>" }, "geometry": { "type": "Point", "coordinates": [ 5.045192, 52.000458, 0.0 ] } },
{ "type": "Feature", "properties": { "Name": "Alticom, Roermond", "Description": "<div dir=\"ltr\">Alticom Roermond,<br>Op de Meuleberg 7,<br>6041 NK,<br>Roermond,<br>The Netherlands<br><\/div>" }, "geometry": { "type": "Point", "coordinates": [ 5.975629, 51.183994, 0.0 ] } },
{ "type": "Feature", "properties": { "Name": "Alticom, Roosendaal", "Description": "<div dir=\"ltr\">Alticom Roosendaal,<br>Melis Stokelaan,<br>4707 HP,<br>Roosendaal,<br>The Netherlands<br><\/div>" }, "geometry": { "type": "Point", "coordinates": [ 4.461173, 51.523083, 0.0 ] } },
{ "type": "Feature", "properties": { "Name": "Alticom, Rotterdam", "Description": "<div dir=\"ltr\">Alticom Rotterdam,<br>Anthony Fokkerweg 40,<br>3088 GG,<br>Rotterdam,<br>The Netherlands<br><\/div>" }, "geometry": { "type": "Point", "coordinates": [ 4.448578, 51.875732, 0.0 ] } },
{ "type": "Feature", "properties": { "Name": "AMS-IX Office", "Description": "<div dir=\"ltr\"><img src=\"http:\/\/www.nl-ix.net\/gifs\/datacenters\/m6-logo44*20t.png\"><br>AMS-IX Office<br>Westeinde 12,<br>1071 RH,<br>Amsterdam<\/div>" }, "geometry": { "type": "Point", "coordinates": [ 4.898733, 52.358986, 0.0 ] } },
{ "type": "Feature", "properties": { "Name": "Atos Origin, Amsterdam", "Description": "<div dir=\"ltr\">Atos Origin,<br>Voorheen Teleinfo,<br>Naritaweg 50-52,<br>Amsterdam<br><\/div>" }, "geometry": { "type": "Point", "coordinates": [ 4.826801, 52.388306, 0.0 ] } },
{ "type": "Feature", "properties": { "Name": "Atos Origin, Eindhoven", "Description": "Atos Origin,<br>Tarasconweg 2,<br>5627,<br>Eindhoven<br>" }, "geometry": { "type": "Point", "coordinates": [ 5.443576, 51.478374, 0.0 ] } },
{ "type": "Feature", "properties": { "Name": "Bardeen Datahotel, Groningen", "Description": "Bardeen Datahotel, <br>Winschoterdiep 50,<br>9723 AB,<br>Groningen,<br>The Netherlands<a href=\"\/maps?f=q&amp;source=s_q&amp;hl=en&amp;geocode=&amp;q=winschoterdiep+50,+groningen,+The+Netherlands&amp;vps=17&amp;jsv=165c&amp;sll=51.579185,4.928841&amp;sspn=0.010501,0.008701&amp;ie=UTF8&amp;latlng=&amp;ei=WbBMSrygB87KjAeSm5n8CQ&amp;sig2=rkkaj7EDH9USAGPOvq9GPw&amp;dtab=5\" target=\"_blank\"><br><\/a>" }, "geometry": { "type": "Point", "coordinates": [ 6.582164, 53.211803, 0.0 ] } },
{ "type": "Feature", "properties": { "Name": "BIT-1, Ede", "Description": "Bit,<br>BIT-1,<br>Kelvinstraat 63,<br>Ede<br>" }, "geometry": { "type": "Point", "coordinates": [ 5.625129, 52.030716, 0.0 ] } },
{ "type": "Feature", "properties": { "Name": "BIT-2, Ede", "Description": "Bit,<br>BIT-2,<br>Galileilaan 19,<br>Ede" }, "geometry": { "type": "Point", "coordinates": [ 5.625665, 52.026989, 0.0 ] } },
{ "type": "Feature", "properties": { "Name": "BT, Eindhoven", "Description": "BT Eindhoven,<br>voorheen Telfort, NS,<br>Fuutlaan 6, <br>5613,<br>Eindhoven<br>" }, "geometry": { "type": "Point", "coordinates": [ 5.496452, 51.444057, 0.0 ] } },
{ "type": "Feature", "properties": { "Name": "BT Hempoint, Amsterdam", "Description": "BT Hempoint,<br>Nieuwe Hemweg 6p,<br>1013,<br>Amsterdam<br>" }, "geometry": { "type": "Point", "coordinates": [ 4.86755, 52.394016, 0.0 ] } },
{ "type": "Feature", "properties": { "Name": "BT, Nieuwegein", "Description": "BT,<br>Frieslandhaven 15,<br>Nieuwegein" }, "geometry": { "type": "Point", "coordinates": [ 5.104767, 52.018314, 0.0 ] } },
{ "type": "Feature", "properties": { "Name": "BT, Oosterbeek", "Description": "BT Oosterbeek,<br>voorheen Telfort, NS,<br>Prins Bernhardweg 2a,<br>6862,<br>Oosterbeek<br>" }, "geometry": { "type": "Point", "coordinates": [ 5.861292, 51.9814, 0.0 ] } },
{ "type": "Feature", "properties": { "Name": "BT, Zwolle", "Description": "BT,<br>voorheen Telfort, NS,<br>George Stephensonstraat,<br>Zwolle<br>" }, "geometry": { "type": "Point", "coordinates": [ 6.119138, 52.492702, 0.0 ] } },
{ "type": "Feature", "properties": { "Name": "Casema GV18, Den Haag", "Description": "Casema Den Haag,<br>Siemens gebouw,<br>Wilhelmina van Pruisenweg 18,<br>(Prinses Beatrixlaan 800, 2595 BN,)<br>Den Haag<br>" }, "geometry": { "type": "Point", "coordinates": [ 4.341069, 52.079433, 0.0 ] } },
{ "type": "Feature", "properties": { "Name": "Casema, Utrecht", "Description": "Casema Utrecht,<br>Decimalaan 16<br>3526,<br>Utrecht<br>" }, "geometry": { "type": "Point", "coordinates": [ 5.104897, 52.062569, 0.0 ] } },
{ "type": "Feature", "properties": { "Name": "Claranet Benelux, Son", "Description": "Claranet Benelux,<br>Science Park 5630,<br>5692 EN,<br>Son<br><a href=\"http:\/\/www.claranet.nl\/\" target=\"_blank\">www.claranet.nl<\/a><br>" }, "geometry": { "type": "Point", "coordinates": [ 5.45557, 51.499634, 0.0 ] } },
{ "type": "Feature", "properties": { "Name": "Cofely, Beek", "Description": "<div dir=\"ltr\">Cofely Datacenter Beek,<br>Voorheen GTI,<br>Amerikalaan 35,<br>6199 AE,<br>Maastricht Airport,<br>Beek<br><\/div>" }, "geometry": { "type": "Point", "coordinates": [ 5.781147, 50.925663, 0.0 ] } },
{ "type": "Feature", "properties": { "Name": "Colt, Amsterdam", "Description": "Colt,<br>Van der madeweg 12,<br>Amsterdam<br>" }, "geometry": { "type": "Point", "coordinates": [ 4.92566, 52.32766, 0.0 ] } },
{ "type": "Feature", "properties": { "Name": "Colt, Roosendaal", "Description": "Colt, Roosendaal,<br>Argonweg<br>4706,<br>Roosendaal" }, "geometry": { "type": "Point", "coordinates": [ 4.508996, 51.539967, 0.0 ] } },
{ "type": "Feature", "properties": { "Name": "Computel Standby, Apeldoorn", "Description": "Computel Standby,<br>Schumanpark 29,<br>7336 AM,<br>Apeldoorn" }, "geometry": { "type": "Point", "coordinates": [ 5.943604, 52.194069, 0.0 ] } },
{ "type": "Feature", "properties": { "Name": "Coolwave Carrier1, Amsterdam", "Description": "Coolwave - Carrier1- Relined,<br>Hempoint,<br>Nieuwe Hemweg 26,<br>1013 CX,<br>Amsterdam" }, "geometry": { "type": "Point", "coordinates": [ 4.863414, 52.395115, 0.0 ] } },
{ "type": "Feature", "properties": { "Name": "Concepts ICT, Breda", "Description": "Concepts ICT,<br>St. Ignatiusstraat 265,<br>4817 KK,<br>Breda<br>" }, "geometry": { "type": "Point", "coordinates": [ 4.803093, 51.592674, 0.0 ] } },
{ "type": "Feature", "properties": { "Name": "CUC, Lelystad", "Description": "CUC,<br>Computer Uitwijk Centrum,<br>KPN, Getronics\/PinkRoccade,<br>Botter 1590,<br>8232,<br>Lelystad<br>" }, "geometry": { "type": "Point", "coordinates": [ 5.471678, 52.505981, 0.0 ] } },
{ "type": "Feature", "properties": { "Name": "CyberBunker, Goes\/Kloetingen", "Description": "<div dir=\"ltr\">Cyberbunker,<br>Zomerweg, Kloetinge\/<br>Oranjeweg, Goes,<br> The Netherlands<br><\/div>" }, "geometry": { "type": "Point", "coordinates": [ 3.907313, 51.502224, 0.0 ] } },
{ "type": "Feature", "properties": { "Name": "Databarn, Amsterdam", "Description": "WeDare,<br>DataBarn1,<br>Zekeringstraat 35,<br>Teleport,<br>Amsterdam<br><a href=\"http:\/\/www.wedare.nl\/\" target=\"_blank\">www.wedare.nl<\/a><br>" }, "geometry": { "type": "Point", "coordinates": [ 4.850121, 52.396317, 0.0 ] } },
{ "type": "Feature", "properties": { "Name": "Databarn Rivium, Capelle aan den Ijssel", "Description": "<div dir=\"ltr\">Databarn Rivium,<br>Rivium Boulevard 62,<br>2909 LK,<br>Capelle aan den IJssel<\/div>" }, "geometry": { "type": "Point", "coordinates": [ 4.546352, 51.910778, 0.0 ] } },
{ "type": "Feature", "properties": { "Name": "Datacenter Brabant", "Description": "Gragtmansstraat 1b,<br>5145 RA,<br>Waalwijk<br><br><a href=\"http:\/\/maps.google.com\/maps\/place?ftid=0x47c6910c9e55a0b1:0x910e7e3b503008c0&amp;q=Gragtmansstraat+1b,+waalwijk&amp;hl=en&amp;authuser=0&amp;cad=src:ppiwlink&amp;ei=m7GOTuioCI2jOuLnucEK&amp;dtab=5\" target=\"_blank\"><br><\/a>" }, "geometry": { "type": "Point", "coordinates": [ 5.038839, 51.697422, 0.0 ] } },
{ "type": "Feature", "properties": { "Name": "Datacenter Dongen, Dongen", "Description": "<div dir=\"ltr\">Datacenter Dongen (Match-IT.net),<br>De Slof 10c,<br>5107 RJ,<br>Dongen,<br>The Netherlands<br><\/div>" }, "geometry": { "type": "Point", "coordinates": [ 4.93843, 51.613991, 0.0 ] } },
{ "type": "Feature", "properties": { "Name": "Datacenter Groningen, Zuidbroek", "Description": "Datacenter Groningen<br>Beneluxweg 4,<br>9636,<br>Zuidbroek,<br>Netherlands<br><a href=\"http:\/\/maps.google.com\/maps\/place?ftid=0x47b7d4eeb8cac89b:0x57765702fede641cq=beneluxweg+4,+zuidbroekhl=encad=src:ppiwlinkei=emYwTr6GOounOoO1iaYDdtab=5\" target=\"_blank\"><br><\/a>" }, "geometry": { "type": "Point", "coordinates": [ 6.864535, 53.165024, 0.0 ] } },
{ "type": "Feature", "properties": { "Name": "Datacenter Meppel", "Description": "Ketelskamp 10 (Kavel 39),<br>Industrieterrein Noord II,<br>7942<br>Meppel<br>" }, "geometry": { "type": "Point", "coordinates": [ 6.201478, 52.715343, 0.0 ] } },
{ "type": "Feature", "properties": { "Name": "Data Hotel Hilversum, Hilversum", "Description": "Data Hotel Hilversum (TCN),<br>Gebouw 4 (decorcentrum),<br>Sumatralaan 45,<br> 1217 GP Hilversum,<br>Netherlands<br>" }, "geometry": { "type": "Point", "coordinates": [ 5.171074, 52.238281, 0.0 ] } },
{ "type": "Feature", "properties": { "Name": "Datahouse, Alkmaar", "Description": "<div dir=\"ltr\">Datahouse Alkmaar,<br>Voorheen Vodafone,<br>Professor van der Waalsstraat 1,<br>Kruising met Edisonweg,<br>1821 BT,<br>Alkmaar,<br>Netherlands<\/div>" }, "geometry": { "type": "Point", "coordinates": [ 4.770218, 52.625778, 0.0 ] } },
{ "type": "Feature", "properties": { "Name": "DataHouse, Alphen aan den Rijn", "Description": "<div dir=\"ltr\">Datahouse Alphen aan de Rijn,<br>Voorheen Grafix NOC en Cistron,<br>Handelsweg 8,<br>Alphen aan den Rijn<\/div>" }, "geometry": { "type": "Point", "coordinates": [ 4.641337, 52.131069, 0.0 ] } },
{ "type": "Feature", "properties": { "Name": "Datahouse Amerfoort", "Description": "Datahouse Amersfoort,<div>Voorheen Vodafone,<br><div>Spaceshuttle 21,<div>Amersfoort,<\/div><div>The Netherlands<br>&nbsp;<\/div><\/div><\/div>" }, "geometry": { "type": "Point", "coordinates": [ 5.393245, 52.197231, 0.0 ] } },
{ "type": "Feature", "properties": { "Name": "Datahouse Capelle, Capelle aan den IJssel", "Description": "<div dir=\"ltr\">Datahouse Capelle, voorheen Grafix NOC,<br>Stationsplein 20,<br>Capelle aan den IJssel<\/div>" }, "geometry": { "type": "Point", "coordinates": [ 4.585293, 51.953831, 0.0 ] } },
{ "type": "Feature", "properties": { "Name": "Datahouse Den Haag", "Description": "Datahouse Den Haag,<div>Voorheen Vodafone,<\/div><div>Moezel 3,<div><div>Den Haag,<\/div><div>The Netherlands<\/div><\/div><\/div>" }, "geometry": { "type": "Point", "coordinates": [ 4.386785, 52.064789, 0.0 ] } },
{ "type": "Feature", "properties": { "Name": "Data Facilities, Spijkenisse", "Description": "<div dir=\"ltr\">Data Facilities<br>Voorheen Dathouse Spijkenisse,EDS, daarvoor RSV<br>Boyleweg 2,<br>Spijkenisse,<br>The Netherlands<br><br><\/div>" }, "geometry": { "type": "Point", "coordinates": [ 4.30212, 51.855484, 0.0 ] } },
{ "type": "Feature", "properties": { "Name": "Dataplace, Alblasserdam", "Description": "<div dir=\"ltr\">Dataplace (Proserve),<br>Van Coulsterweg,<br>Alblasserdam,<br>Nederland<br><\/div>" }, "geometry": { "type": "Point", "coordinates": [ 4.677054, 51.843121, 0.0 ] } },
{ "type": "Feature", "properties": { "Name": "Dataregiocentre, Wormerveer", "Description": "Dataregiocentre,<br>Oude Blaauwweg 30,<br>1521 RN,<br>Wormerveer<br><a href=\"http:\/\/www.dataregiocentre.com\/\" target=\"_blank\">www.dataregiocentre.com<\/a><br>" }, "geometry": { "type": "Point", "coordinates": [ 4.783315, 52.510113, 0.0 ] } },
{ "type": "Feature", "properties": { "Name": "DCA, Amsterdam", "Description": "DCA Amsterdam,<br>Cap Gemini Datacenter,<br>voorheen XB IDC, Iparix, IP PowerHouse,<br>Archangelkade 1-3,<br>1013 BE,<br>Amsterdam" }, "geometry": { "type": "Point", "coordinates": [ 4.870816, 52.395985, 0.0 ] } },
{ "type": "Feature", "properties": { "Name": "DCA, Utrecht", "Description": "DCA Utrecht,<br>Cap Gemini Datacenter,<br>Daltonlaan 300,<br>Utrecht" }, "geometry": { "type": "Point", "coordinates": [ 5.160079, 52.087669, 0.0 ] } },
{ "type": "Feature", "properties": { "Name": "DCF 1, Leeuwarden", "Description": "Datacenter Fryslan,<br>DCF1&amp;2,<br>Francois HaverSchmidtwei 2-3,<br>8914 BC,<br>Leeuwarden" }, "geometry": { "type": "Point", "coordinates": [ 5.763437, 53.205681, 0.0 ] } },
{ "type": "Feature", "properties": { "Name": "The Datacenter Group, Amsterdam", "Description": "<div dir=\"ltr\">The Datacenter Group,<br>TransIP &amp; NXS,<br>voorheen AFM,<br>Kabelweg 48,<br>Teleport,<br>Amsterdam<\/div>" }, "geometry": { "type": "Point", "coordinates": [ 4.847224, 52.393318, 0.0 ] } },
{ "type": "Feature", "properties": { "Name": "Easynet, Schiphol Rijk", "Description": "Easynet,<br>Capronilaan 2.<br>Schiphol Rijk" }, "geometry": { "type": "Point", "coordinates": [ 4.772959, 52.282219, 0.0 ] } },
{ "type": "Feature", "properties": { "Name": "Eco2DC, Steenwijk", "Description": "<div dir=\"ltr\">Eco2DC,<br>Industrieterrein Eeserwold,<br>Steenwijk<\/div>" }, "geometry": { "type": "Point", "coordinates": [ 6.133615, 52.8036, 0.0 ] } },
{ "type": "Feature", "properties": { "Name": "EFX - Eindhoven Fiber Exchange, Eindhoven", "Description": "<div dir=\"ltr\">EFX,<br>Eindhoven Fiber Exchange,<br>Gebouw Laplace,<br>Den Dolech 2,<br>5612 AZ,<br>Eindhoven,<br>Netherlands<br><\/div>" }, "geometry": { "type": "Point", "coordinates": [ 5.488787, 51.448811, 0.0 ] } },
{ "type": "Feature", "properties": { "Name": "EKC Limmel", "Description": "<div dir=\"ltr\">EKC Limmel,<br>Populierweg 150<br>6222 CT,<br>Maastricht,<br>The Netherlands<br><\/div>" }, "geometry": { "type": "Point", "coordinates": [ 5.709845, 50.864021, 0.0 ] } },
{ "type": "Feature", "properties": { "Name": "Emango, Schinnen", "Description": "<div dir=\"ltr\">Emango,<br>Breinderveldweg,<br>Schinnen<\/div>" }, "geometry": { "type": "Point", "coordinates": [ 5.878243, 50.936863, 0.0 ] } },
{ "type": "Feature", "properties": { "Name": "Enne Solutions Datacenter Zuid, Roermond", "Description": "Enne Solutions Datacenter Zuid,<br>Westhoven 6,<br>6042 NV,<br>Roermond<br><a href=\"http\/\/www.datacenterzuid.nl\/\" target=\"_blank\">www.datacenterzuid.nl<\/a><br><br>" }, "geometry": { "type": "Point", "coordinates": [ 6.019639, 51.192799, 0.0 ] } },
{ "type": "Feature", "properties": { "Name": "Essent Aagtdorp (Bergen\/Schoorl)", "Description": "<div dir=\"ltr\">Essent Aagtdorp (Bergen, Schoorl),<br>The Netherlands<br><\/div>" }, "geometry": { "type": "Point", "coordinates": [ 4.702921, 52.688507, 0.0 ] } },
{ "type": "Feature", "properties": { "Name": "Equant, Amsterdam", "Description": "<div dir=\"ltr\">Equant,<br>voorheen SITA, GlobalOne,<br>Heathrowstraat 10,<br>1043 CH,<br>Teleport,<br>Amsterdam<br><\/div>" }, "geometry": { "type": "Point", "coordinates": [ 4.832305, 52.385761, 0.0 ] } },
{ "type": "Feature", "properties": { "Name": "Equant, Schiphol Rijk", "Description": "Equant,<br>voorheen Global One,<br>Cessnalaan 71,<br>1119 NM,<br>Schiphol Rijk<br>" }, "geometry": { "type": "Point", "coordinates": [ 4.767601, 52.281963, 0.0 ] } },
{ "type": "Feature", "properties": { "Name": "Equinix Virtu, Amsterdam", "Description": "Equinix Virtu,<br>Amsterdam,<br>Luttenbergweg 4,<br>Zuid-Oost,<br>Amsterdam" }, "geometry": { "type": "Point", "coordinates": [ 4.941798, 52.300602, 0.0 ] } },
{ "type": "Feature", "properties": { "Name": "Equinix Virtu, Enschede", "Description": "Equinix Virtu,<br>Enschede,<br>Auke Vleerstraat 1,<br>Enschede" }, "geometry": { "type": "Point", "coordinates": [ 6.849267, 52.237141, 0.0 ] } },
{ "type": "Feature", "properties": { "Name": "Equinix Virtu, Zwolle", "Description": "Equinix Virtu,<br>Zwolle,<br>Telfordstraat 3,<br>8013 RL,<br>Zwolle" }, "geometry": { "type": "Point", "coordinates": [ 6.141341, 52.487957, 0.0 ] } },
{ "type": "Feature", "properties": { "Name": "euNetworks, Amsterdam", "Description": "euNetworks,<br>Paul van Vlissingenstraat 16,<br>Zuid-As,<br>Amsterdam" }, "geometry": { "type": "Point", "coordinates": [ 4.921253, 52.33366, 0.0 ] } },
{ "type": "Feature", "properties": { "Name": "euNetworks, Halfweg", "Description": "<div dir=\"ltr\">euNetworks - ING Bank,<br>(actually Viate owned DC)l,<br>Haarlemmerstraatweg 133-135,<br>Halfweg,<br>1165 NK,<br>Amsterdam<\/div>" }, "geometry": { "type": "Point", "coordinates": [ 4.717829, 52.384956, 0.0 ] } },
{ "type": "Feature", "properties": { "Name": "EuroFiber Nijverheidsweg, Utrecht", "Description": "Eurofiber Nijverheidsweg,<br>voorheen Telecom Utrecht,<br>Nijverheidsweg 15<br>3534,<br>Utrecht<br>" }, "geometry": { "type": "Point", "coordinates": [ 5.083837, 52.101162, 0.0 ] } },
{ "type": "Feature", "properties": { "Name": "Eurofiber Zonnebaan, Utrecht", "Description": "Eurofiber Zonnebaan,<br>voorheen Telecom Utrecht,<br>Zonnebaan 1,<br>3542,<br>Utrecht<br>" }, "geometry": { "type": "Point", "coordinates": [ 5.040545, 52.117283, 0.0 ] } },
{ "type": "Feature", "properties": { "Name": "EvoSwitch, Haarlem", "Description": "EvoSwitch,<br>J.W. Lucasweg 35,<br>Waarderpolder,<br>Haarlem<br><a href=\"http:\/\/www.evoswitch.nl\/\" target=\"_blank\">www.evoswitch.nl<\/a>" }, "geometry": { "type": "Point", "coordinates": [ 4.665177, 52.391739, 0.0 ] } },
{ "type": "Feature", "properties": { "Name": "EwekaDC, Amsterdam", "Description": "<div dir=\"ltr\">EwekaDC,<br>Voorheen Interoute\/I-21 datacenter,<br>Westhavenweg 60b,<br>Westhaven,<br>Amsterdam<\/div>" }, "geometry": { "type": "Point", "coordinates": [ 4.829052, 52.408081, 0.0 ] } },
{ "type": "Feature", "properties": { "Name": "Final Frontier, Almere", "Description": "<div dir=\"ltr\">Final Frontier,<br>Cypergrasweg 3,<br>1313,<br>Almere,<br><br><\/div>" }, "geometry": { "type": "Point", "coordinates": [ 5.20422, 52.385361, 0.0 ] } },
{ "type": "Feature", "properties": { "Name": "Fontys Hogeschool, Venlo", "Description": "Fontys Hogeschool,<br>Hulsterweg 2,<br>5912 PL,<br>Venlo" }, "geometry": { "type": "Point", "coordinates": [ 6.155454, 51.353455, 0.0 ] } },
{ "type": "Feature", "properties": { "Name": "Getronics, Apeldoorn", "Description": "<div dir=\"ltr\">Getronics Apeldoorn,<br>Fauststraat,<br>7323<br>Apeldoorn,<br>The Netherlands<br><\/div>" }, "geometry": { "type": "Point", "coordinates": [ 5.977314, 52.232944, 0.0 ] } },
{ "type": "Feature", "properties": { "Name": "Gemeente Heerlen", "Description": "<div dir=\"ltr\">Gemeente Heerlen,<br>Raadhuisplein 1,<br>6411,<br>Heerlen,<br>The Netherlands<br><\/div>" }, "geometry": { "type": "Point", "coordinates": [ 5.978604, 50.885929, 0.0 ] } },
{ "type": "Feature", "properties": { "Name": "Global Crossing, Amsterdam", "Description": "Global Crossing,<br>voorheen ING,<br>Joop Geesinkweg 401-403,<br>Amsterdam<br>" }, "geometry": { "type": "Point", "coordinates": [ 4.931944, 52.334721, 0.0 ] } },
{ "type": "Feature", "properties": { "Name": "Global Datacenter, Rijen", "Description": "<div dir=\"ltr\">Global Datacenter,<br>Haansbergseweg 12<br>5121 LJ,<br>Rijen (Gilze),<br>The Netherlands<br><\/div>" }, "geometry": { "type": "Point", "coordinates": [ 4.929085, 51.579037, 0.0 ] } },
{ "type": "Feature", "properties": { "Name": "GlobalSwitch, Amsterdam", "Description": "<img src=\"http:\/\/www.nl-ix.net\/images\/datacenters\/globalswitch40*13.jpg\"><br>GlobalSwitch,<br>Johan Huizingalaan 759,<br>Sloten,<br>1066 VH,<br>Amsterdam" }, "geometry": { "type": "Point", "coordinates": [ 4.831442, 52.344162, 0.0 ] } },
{ "type": "Feature", "properties": { "Name": "Google Eemsdelta - Eemshaven", "Description": "<div dir=\"ltr\">Google Eemsdelta,<br>Voorheen TCN SIG,<br>Huibertsgatweg 2,<br>9979 XR,<br>Eemshaven<\/div>" }, "geometry": { "type": "Point", "coordinates": [ 6.859074, 53.44109, 0.0 ] } },
{ "type": "Feature", "properties": { "Name": "Gyrocenter DC2", "Description": "<div dir=\"ltr\">Gyrocenter DC2,<br>Reasonnet,<br>Gyroscoopweg 134<br>1042 AZ,<br>Amsterdam,<br>The Netherlands<br><\/div>" }, "geometry": { "type": "Point", "coordinates": [ 4.842354, 52.40036, 0.0 ] } },
{ "type": "Feature", "properties": { "Name": "Interbox Internet, Capelle aan den IJssel", "Description": "Interbox Internet,<br>Venkelbaan 58,<br>2908 BG,<br>Capelle aan den IJssel<br>" }, "geometry": { "type": "Point", "coordinates": [ 4.582853, 51.96312, 0.0 ] } },
{ "type": "Feature", "properties": { "Name": "Interconnect, Eindhoven", "Description": "Interconnect Eindhoven,<br>Eindhoven Park Forum 1041<br>5657 HJ&nbsp; Eindhoven<br>" }, "geometry": { "type": "Point", "coordinates": [ 5.386468, 51.438679, 0.0 ] } },
{ "type": "Feature", "properties": { "Name": "Interconnect, 's-Hertogenbosch", "Description": "InterConnect,<br>De Steenbok 1,<br>5215 MG,<br>'s Hertogenbosch<br>" }, "geometry": { "type": "Point", "coordinates": [ 5.360082, 51.686035, 0.0 ] } },
{ "type": "Feature", "properties": { "Name": "Intermax, Rotterdam", "Description": "Intermax,<br>Weena Zuid 108,<br>3012 NC,<br>Rotterdam<br><a href=\"http:\/\/www.intermaxmanagedhosting.nl\/\" target=\"_blank\">www.intermaxmanagedhosting.nl<\/a><br>" }, "geometry": { "type": "Point", "coordinates": [ 4.474268, 51.923115, 0.0 ] } },
{ "type": "Feature", "properties": { "Name": "Interoute, Schiphol Rijk", "Description": "Interoute,<br>Koolhovenlaan 120,<br>Schiphol Rijk" }, "geometry": { "type": "Point", "coordinates": [ 4.756565, 52.279552, 0.0 ] } },
{ "type": "Feature", "properties": { "Name": "Interoute, Soesterberg", "Description": "<div dir=\"ltr\">Interoute,<br>Sterrenbergweg 42A,<br>3769 BS,<br>Soesterberg,<br>Soest<br><\/div>" }, "geometry": { "type": "Point", "coordinates": [ 5.277702, 52.123268, 0.0 ] } },
{ "type": "Feature", "properties": { "Name": "Interoute, Zandvoort", "Description": "<div dir=\"ltr\">Interoute,<br>Burgemeester van Alphenstraat 63,<br>2041 KG,<br>Zandvoort,<br>The Netherlands<br><\/div>" }, "geometry": { "type": "Point", "coordinates": [ 4.534052, 52.38438, 0.0 ] } },
{ "type": "Feature", "properties": { "Name": "Intersquare, Venlo", "Description": "<div dir=\"ltr\">Intersquare,<br>1e Lambertusstraat 26,<br>5921 JS,<br>Venlo,<br>The Netherlands<br><\/div>" }, "geometry": { "type": "Point", "coordinates": [ 6.155674, 51.369488, 0.0 ] } },
{ "type": "Feature", "properties": { "Name": "Interxion AMS1, Amsterdam", "Description": "Interxion,<br>AMS1,<br>Gyroscoopweg 60-62,<br>Teleport,<br>1042 AC,<br>Amsterdam" }, "geometry": { "type": "Point", "coordinates": [ 4.842846, 52.399891, 0.0 ] } },
{ "type": "Feature", "properties": { "Name": "Interxion AMS3, Schiphol Rijk", "Description": "Interxion,<br>AMS3,<br>Cessnalaan 1-33,<br>1119 NJ,<br>Schiphol Rijk" }, "geometry": { "type": "Point", "coordinates": [ 4.77091, 52.284348, 0.0 ] } },
{ "type": "Feature", "properties": { "Name": "Interxion AMS5, Schiphol Rijk", "Description": "Interxion,<br>AMS5,<br>Tupolevlaan 101,<br>1119 PA,<br>Schiphol Rijk" }, "geometry": { "type": "Point", "coordinates": [ 4.75417, 52.280136, 0.0 ] } },
{ "type": "Feature", "properties": { "Name": "Interxion HIL1, Mediagateway, Hilversum", "Description": "<div dir=\"ltr\">Interxion HIL1,<br>Mediagateway,<br>Mediapark,<br>Sumatralaan 45,<br>Hilversum<\/div>" }, "geometry": { "type": "Point", "coordinates": [ 5.169314, 52.24131, 0.0 ] } },
{ "type": "Feature", "properties": { "Name": "Intradesk Datacenter, Rotterdam", "Description": "<div dir=\"ltr\">Intradesk Datacenter,<br>Voorheen Easynet en Wirehub,<br>Westzeedijk 487,<br>3024 EL,<br>Rotterdam<br><\/div>" }, "geometry": { "type": "Point", "coordinates": [ 4.457426, 51.90477, 0.0 ] } },
{ "type": "Feature", "properties": { "Name": "ISP Services - Doetinchem", "Description": "ISP Services,<br>Gildenbroederslaan 1,<br>7005 BM,<br>Doetinchem" }, "geometry": { "type": "Point", "coordinates": [ 6.300058, 51.954586, 0.0 ] } },
{ "type": "Feature", "properties": { "Name": "ITB, Deventer", "Description": "ITB,<br>Herfordstraat 18,<br>7418 EX,<br>Deventer<br><a href=\"http:\/\/www.itb-kwadraat.nl\/\" target=\"_blank\">www.itb-kwadraat.nl<\/a>" }, "geometry": { "type": "Point", "coordinates": [ 6.194766, 52.238338, 0.0 ] } },
{ "type": "Feature", "properties": { "Name": "ITB, Apeldoorn", "Description": "ITB Datacenter Ecofactorij Apeldoorn,<br>Grote Woudhuis 5,<br>7325 WM<br>Apeldoorn<br><br>" }, "geometry": { "type": "Point", "coordinates": [ 6.025031, 52.200024, 0.0 ] } },
{ "type": "Feature", "properties": { "Name": "KPN Ah\/Ah2, Arnhem", "Description": "KPN Ah\/AH2,<br>ZARA locatie,<br>Apeldoornsestraat 1\/Paterstraat 25,<br>6811 AA\/6828 AG,<br>Arnhem" }, "geometry": { "type": "Point", "coordinates": [ 5.910681, 51.985157, 0.0 ] } },
{ "type": "Feature", "properties": { "Name": "KPN ASD2, Amsterdam", "Description": "<div dir=\"ltr\">KPN ASD2,<br>ZARA locatie,<br>Drentestraat 12,<br>1083 HK,<br>Barabara Strozzilaan 251,<br>1083 HN,<br>Amsterdam<\/div>" }, "geometry": { "type": "Point", "coordinates": [ 4.887103, 52.334911, 0.0 ] } },
{ "type": "Feature", "properties": { "Name": "KPN Bd, Breda", "Description": "KPN Bd,<br>Oude Vest 4<br>4811 Breda,<br>The Netherlands<br><a href=\"http:\/\/maps.google.com\/maps\/place?ftid=0x47c6a02a00ab3205:0x8651c082af2e386&amp;q=oude+vest+4,+breda&amp;hl=en&amp;authuser=0&amp;cad=src:ppiwlink&amp;ei=wNtkTrv3E4emOqGu5I8K&amp;dtab=5\" target=\"_blank\"><br><\/a>" }, "geometry": { "type": "Point", "coordinates": [ 4.778523, 51.58633, 0.0 ] } },
{ "type": "Feature", "properties": { "Name": "KPN Bunker, Bussum", "Description": "KPN SSU Bunker,<br>Amersfoortsestraatweg 85,<br>1403,<br>Bussum<br>" }, "geometry": { "type": "Point", "coordinates": [ 5.197105, 52.270424, 0.0 ] } },
{ "type": "Feature", "properties": { "Name": "KPN Capelle, Capelle aan den IJssel", "Description": "<span>KPN Capelle,<br>Essebaan,<\/span><br><span>2908 LJ<\/span>,<br><span>Capelle Aan Den IJssel<\/span><a href=\"\/maps?f=q&amp;hl=en&amp;geocode=&amp;q=essenbaan,+capelle+aan+den+ijssel&amp;sll=52.183375,5.279592&amp;sspn=2.933635,8.64624&amp;ie=UTF8&amp;latlng=51959520,4581107,3270185661158258542&amp;ei=HnHaR8YgnpDaArWU-N8L&amp;sig2=_pd-B4hKFXzUAqsljreizA&amp;cd=1\" target=\"_blank\"><br><\/a>" }, "geometry": { "type": "Point", "coordinates": [ 4.57999, 51.961372, 0.0 ] } },
{ "type": "Feature", "properties": { "Name": "KPN CS DSM, Geleen", "Description": "<div dir=\"ltr\">KPN Coporate Market,<br>CS DSM,<br>Voormalig DSM datacenter,<br>6167 RA  Geleen,<br>The Netherlands<br><\/div>" }, "geometry": { "type": "Point", "coordinates": [ 5.792823, 50.983913, 0.0 ] } },
{ "type": "Feature", "properties": { "Name": "KPN CyberCenter Aalsmeer, Aalsmeer", "Description": "<div dir=\"ltr\">KPN Corporate Market,<br>CyberCenter Aalsmeer,<br>Lakenblekerstraat 13,<br>Aalsmeer<\/div>" }, "geometry": { "type": "Point", "coordinates": [ 4.773045, 52.259964, 0.0 ] } },
{ "type": "Feature", "properties": { "Name": "KPN CyberCenter Almere, Almere", "Description": "<div dir=\"ltr\">KPN Corporate Market,<br>CyberCenter Almere,<br>Rondebeltweg 62,<br>Almere<br><\/div>" }, "geometry": { "type": "Point", "coordinates": [ 5.27041, 52.367233, 0.0 ] } },
{ "type": "Feature", "properties": { "Name": "KPN CyberCenter Haarlem, Haarlem", "Description": "<div dir=\"ltr\">KPN Coporate Market,<br>CyberCenter Haarlem,<br>A. Hofmanweg 1<br>2031,<br>aka Hulswitweg,<br>Waarderpolder,<br>Haarlem<br><br><\/div>" }, "geometry": { "type": "Point", "coordinates": [ 4.669415, 52.387817, 0.0 ] } },
{ "type": "Feature", "properties": { "Name": "KPN CyberCenter Schiphol, Oude Meer", "Description": "<div dir=\"ltr\">KPN Corporate Market,<br>CyberCenter Schiphol,<br>Fokkerweg 300,<br>Oude Meer<\/div>" }, "geometry": { "type": "Point", "coordinates": [ 4.787303, 52.292957, 0.0 ] } },
{ "type": "Feature", "properties": { "Name": "KPN Getronics\/Pink Roccade, Amsterdam", "Description": "KPN Getronics\/Pink Roccade,<br>Gyroscoopweg 2N,<br>1042,<br>Amsterdam<br>" }, "geometry": { "type": "Point", "coordinates": [ 4.841886, 52.396431, 0.0 ] } },
{ "type": "Feature", "properties": { "Name": "KPN GN2, Groningen", "Description": "<div dir=\"ltr\">KPN GN2,<br>voorheen Atos Origin,<br>Peizerweg 156,<br>9727 AR,<br>Groningen<\/div>" }, "geometry": { "type": "Point", "coordinates": [ 6.533078, 53.206459, 0.0 ] } },
{ "type": "Feature", "properties": { "Name": "KPN HD, Groningen", "Description": "<div dir=\"ltr\">KPN HD,<br>voorheen Atos Origin,<br>Henri Dunantlaan 129,<br>Groningen<\/div>" }, "geometry": { "type": "Point", "coordinates": [ 6.559643, 53.195782, 0.0 ] } },
{ "type": "Feature", "properties": { "Name": "KPN, Heerlen", "Description": "<div dir=\"ltr\">KPN Heerlen,<br>Geerstraat 151,<br>Heerlen<\/div>" }, "geometry": { "type": "Point", "coordinates": [ 5.97425, 50.888775, 0.0 ] } },
{ "type": "Feature", "properties": { "Name": "KPN HGL-C, Hengelo", "Description": "KPN HGL-C,<br>B.P. Hofstedestraat 53,<br>7551 DG,<br>Hengelo" }, "geometry": { "type": "Point", "coordinates": [ 6.795705, 52.263645, 0.0 ] } },
{ "type": "Feature", "properties": { "Name": "KPN HGV-C, Hoogeveen", "Description": "KPN HGV-C,<br>Griendtsveenweg 36,<br>7901 EA<br>Hoogeveen" }, "geometry": { "type": "Point", "coordinates": [ 6.467902, 52.720463, 0.0 ] } },
{ "type": "Feature", "properties": { "Name": "KPN RT1, Rotterdam", "Description": "KPN RT1,<br>Rodezand 1,<br>3011 Rotterdam,<br>The Netherlands<br>" }, "geometry": { "type": "Point", "coordinates": [ 4.481938, 51.920422, 0.0 ] } },
{ "type": "Feature", "properties": { "Name": "KPN RT2, Rotterdam", "Description": "KPN RT2 (Waalhaven),<br>ZARA locatie,<br>Anthony Fokkerweg 40,<br>3088 GG,<br>Rotterdam,<br>The Netherlands<br><br>" }, "geometry": { "type": "Point", "coordinates": [ 4.448626, 51.875458, 0.0 ] } },
{ "type": "Feature", "properties": { "Name": "KPN ZL-C, Zwolle ", "Description": "KPN ZL-C,<br>ZARA locatie,<br>Parkstraat 1<br>8011 CJ,<br>Zwolle<br><br><a href=\"http:\/\/maps.google.com\/maps\/place?ftid=0x47c7df29405744e9:0x1b453ebd9548ecfc&amp;q=parkstraat+1,+zwolle&amp;hl=en&amp;authuser=0&amp;cad=src:ppiwlink&amp;ei=xcmETvKgEuOKmQWrqJDWAQ&amp;dtab=5\" target=\"_blank\"><br><\/a>" }, "geometry": { "type": "Point", "coordinates": [ 6.088295, 52.50779, 0.0 ] } },
{ "type": "Feature", "properties": { "Name": "Level3, Amsterdam", "Description": "Level3,<br>Stekkenbergweg 4,<br>Amsterdam<br>" }, "geometry": { "type": "Point", "coordinates": [ 4.948684, 52.29636, 0.0 ] } },
{ "type": "Feature", "properties": { "Name": "Liander, Amsterdam", "Description": "<div dir=\"ltr\">Liander,<br>Voorheen Nuon, Voorheen Enertel,<br>Spaklerweg 20a gebouw E,<br>1096 BA,<br>Amsterdam<br><\/div>" }, "geometry": { "type": "Point", "coordinates": [ 4.920467, 52.337696, 0.0 ] } },
{ "type": "Feature", "properties": { "Name": "Luna, Rotterdam", "Description": "Luna,<br>Puntegaalstraat 109,<br>3024 EB,<br>Rotterdam<br><a href=\"http:\/\/www.luna.nl\/\" target=\"_blank\">www.luna.nl<\/a><br>" }, "geometry": { "type": "Point", "coordinates": [ 4.463278, 51.906757, 0.0 ] } },
{ "type": "Feature", "properties": { "Name": "Match-IT, Dongen", "Description": "Match-IT,<br>De Slof 10,<br>5107 RJ,<br>Dongen,<br>The Netherlands<br><br>" }, "geometry": { "type": "Point", "coordinates": [ 4.93843, 51.613991, 0.0 ] } },
{ "type": "Feature", "properties": { "Name": "Muller Networks, Coevorden", "Description": "<div dir=\"ltr\">Muller Networks,<br>Europaweg 2<br>7742 PN,<br>Coevorden,<br>The Netherlands<br><\/div>" }, "geometry": { "type": "Point", "coordinates": [ 6.755116, 52.658459, 0.0 ] } },
{ "type": "Feature", "properties": { "Name": "Nedcomp, Hardinxveld-Giessendam", "Description": "<div dir=\"ltr\">Nedcomp,<br>Ambachtsstraat 1c-d,<br>3371 XA,<br>Hardinxveld-Giessendam,<br>The Netherlands<br><\/div>" }, "geometry": { "type": "Point", "coordinates": [ 4.817207, 51.823425, 0.0 ] } },
{ "type": "Feature", "properties": { "Name": "Nedzone, Steenbergen", "Description": "Nedzone,<br>Drukkerij 6,<br>4651 SL,<br>Steenbergen,<br><a href=\"http:\/\/www.nedzone.nl\/\" target=\"_blank\">www.nedzone.nl<\/a><br>" }, "geometry": { "type": "Point", "coordinates": [ 4.307492, 51.587097, 0.0 ] } },
{ "type": "Feature", "properties": { "Name": "Nikhef, Amsterdam", "Description": "Nikhef,<br>Kruislaan 409,<br>Science Park,<br>Amsterdam" }, "geometry": { "type": "Point", "coordinates": [ 4.951326, 52.356136, 0.0 ] } },
{ "type": "Feature", "properties": { "Name": "NL-ix Office", "Description": "<div dir=\"ltr\">NL-ix Office,<br>Laan Copes van Cattenburch 73,<br>2585 EW,<br>The Hague<br>&nbsp;<\/div>" }, "geometry": { "type": "Point", "coordinates": [ 4.311253, 52.091591, 0.0 ] } },
{ "type": "Feature", "properties": { "Name": "Plant, Amsterdam", "Description": "<div dir=\"ltr\">Plant,<br>Science Park 140 (Matrix-1 gebouw)<br>1098 XG,<br>Amsterdam<\/div>" }, "geometry": { "type": "Point", "coordinates": [ 4.954394, 52.356876, 0.0 ] } },
{ "type": "Feature", "properties": { "Name": "Pink Roccade, Amsterdam", "Description": "Pink Roccade,<br>Paalbergweg 1,<br>Zuid-Oost,<br>Amsterdam" }, "geometry": { "type": "Point", "coordinates": [ 4.95304, 52.300262, 0.0 ] } },
{ "type": "Feature", "properties": { "Name": "Planpro, Helmond", "Description": "<div dir=\"ltr\">Planpro,<br>Kluisstraat 90,<br>5701 KR,<br>Helmond,<br>The Netherlands<br><\/div>" }, "geometry": { "type": "Point", "coordinates": [ 5.658287, 51.479843, 0.0 ] } },
{ "type": "Feature", "properties": { "Name": "Previder (Introweb) PDC1, Hengelo", "Description": "Previder (Introweb) PDC1,<br>Welbergweg 30<br>7556 PE,<br>Hengelo<br><a href=\"http:\/\/www.introweb.nl\/\" target=\"_blank\">www.introweb.nl<\/a><br>" }, "geometry": { "type": "Point", "coordinates": [ 6.779504, 52.28456, 0.0 ] } },
{ "type": "Feature", "properties": { "Name": "Previder (Introweb) PDC2, Hengelo", "Description": "<div dir=\"ltr\">Previder (Introweb) PDC2,<br>Barnsteenstraat 15,<br>7554 TC,<br>Hengelo<\/div>" }, "geometry": { "type": "Point", "coordinates": [ 6.767952, 52.244991, 0.0 ] } },
{ "type": "Feature", "properties": { "Name": "ReliNed Cabine Culemborg, Culemborg", "Description": "Culemborg,<br>Netherlands<br>" }, "geometry": { "type": "Point", "coordinates": [ 5.229975, 51.943874, 0.0 ] } },
{ "type": "Feature", "properties": { "Name": "RDC Datacentrum, Amsterdam", "Description": "RDC Datacentrum,<br>Bovag. Rai,<br>De Klencke 12,<br>1083 HL,<br>Amsterdam,<br><a href=\"http:\/\/www.rdc.nl\/\" target=\"_blank\">www.rdc.nl<\/a><br>" }, "geometry": { "type": "Point", "coordinates": [ 4.885855, 52.333607, 0.0 ] } },
{ "type": "Feature", "properties": { "Name": "Rembrand Toren, Amsterdam", "Description": "Rembrand Toren,<br>Amstelplein 2,<br>Amsterdam" }, "geometry": { "type": "Point", "coordinates": [ 4.917353, 52.344624, 0.0 ] } },
{ "type": "Feature", "properties": { "Name": "R_iX", "Description": "Rotterdam Internet Exchanged (R_iX),<br>Schuttevaerweg 48,<br>Rotterdam,<br>The Netherlands<br><a href=\"\/maps?f=q&amp;source=s_q&amp;hl=en&amp;geocode=&amp;q=schuttevaerweg+48,+rotterdam&amp;vps=3&amp;jsv=183b&amp;sll=51.927529,4.414133&amp;sspn=0.010261,0.008701&amp;ie=UTF8&amp;ei=OGvpSvGDMc20sgbn7szgDg&amp;sig2=fS6VZpG_PKNuRptAZn5EKA&amp;dtab=5\" target=\"_blank\"><br><\/a>" }, "geometry": { "type": "Point", "coordinates": [ 4.413827, 51.930138, 0.0 ] } },
{ "type": "Feature", "properties": { "Name": "RUG Rekenhal, Groningen", "Description": "RUG,<br>Rekenhal,<br>Landleven 1,<br>Groningen" }, "geometry": { "type": "Point", "coordinates": [ 6.532869, 53.239681, 0.0 ] } },
{ "type": "Feature", "properties": { "Name": "RUG Zernikeborg, Groningen", "Description": "RUG,<br>Zernikeborg,<br>Nettelbosje 1,<br>Groningen" }, "geometry": { "type": "Point", "coordinates": [ 6.535749, 53.237949, 0.0 ] } },
{ "type": "Feature", "properties": { "Name": "SARA, Almere", "Description": "SARA Almere,<br>Randstad 22 153,<br>Almere" }, "geometry": { "type": "Point", "coordinates": [ 5.226724, 52.378113, 0.0 ] } },
{ "type": "Feature", "properties": { "Name": "SARA, Amsterdam", "Description": "SARA Amsterdam,<br>Kruislaan 415,<br>Science Park,<br>1089 SJ,<br>Amsterdam" }, "geometry": { "type": "Point", "coordinates": [ 4.952838, 52.356071, 0.0 ] } },
{ "type": "Feature", "properties": { "Name": "Schuberg Philis, Schiphol Rijk", "Description": "Schuberg Philis,<br>Boeing Avenue 271,<br>Schiphol Rijk" }, "geometry": { "type": "Point", "coordinates": [ 4.75089, 52.274876, 0.0 ] } },
{ "type": "Feature", "properties": { "Name": "Schiecentrale, Rotterdam", "Description": "Schiecentrale,<br>Lloydstraat 5,<br>3024 EA,<br>Rotterdam<br>" }, "geometry": { "type": "Point", "coordinates": [ 4.460253, 51.902977, 0.0 ] } },
{ "type": "Feature", "properties": { "Name": "Serverius, Dronten", "Description": "<div dir=\"ltr\">Serverius,<br>De Linge 26<br>8253 PJ,<br>Dronten,<br>The Netherlands<br><\/div>" }, "geometry": { "type": "Point", "coordinates": [ 5.706189, 52.543053, 0.0 ] } },
{ "type": "Feature", "properties": { "Name": "SmartDC, Rotterdam", "Description": "SmartDC,<br>'Dataport of Rotterdam',<br>i3d,<br>Van Nellefabriek,<br>Van Nelleweg 1,<br>3044 BC,<br>Rotterdam<br><br><br>" }, "geometry": { "type": "Point", "coordinates": [ 4.434786, 51.922672, 0.0 ] } },
{ "type": "Feature", "properties": { "Name": "Solcon, Apeldoorn", "Description": "<div dir=\"ltr\">Solcon Apeldoorn,<br>Laan van de Ram,<br>7323,<br>Apeldoorn,<br>The Netherlands<br><\/div>" }, "geometry": { "type": "Point", "coordinates": [ 6.001904, 52.246922, 0.0 ] } },
{ "type": "Feature", "properties": { "Name": "Solcon, Dronten", "Description": "Solcon Dronten,<br>Het Spaarne 11,<br>8253 PE,<br>Dronten<br><a href=\"http:\/\/www.solcon.nl\/\" target=\"_blank\">www.solcon.nl<\/a><br>" }, "geometry": { "type": "Point", "coordinates": [ 5.70236, 52.538849, 0.0 ] } },
{ "type": "Feature", "properties": { "Name": "Sorbie, Amsterdam", "Description": "Sorbie Netherlands Datacenter,<br>ViaNet, ClaraNet,<br>Kabelweg 21,<br>1014 BA,<br>Amsterdam" }, "geometry": { "type": "Point", "coordinates": [ 4.84658, 52.390354, 0.0 ] } },
{ "type": "Feature", "properties": { "Name": "Spaanse Kubus, Rotterdam", "Description": "Spaanse Kubus,<br>Vlaardingweg 62,<br>Rotterdam" }, "geometry": { "type": "Point", "coordinates": [ 4.414519, 51.930832, 0.0 ] } },
{ "type": "Feature", "properties": { "Name": "Systemec, Venlo", "Description": "Systemec,<br>Marinus Dammeweg 25,<br>Venlo Trade Port,<br>5928 PW,<br>Venlo<br><a href=\"https:\/\/maps.google.com\/maps\/place?ftid=0x47c75ac95df5cd8f:0xf98beae11a8b458f&amp;q=Marinus+Dammeweg+25,+Venlo,+The+Netherlands&amp;hl=en&amp;authuser=0&amp;t=h&amp;cd=1&amp;cad=src:ppiwlink&amp;ei=GyqRUJfMBMTB8gOW6oCoAg&amp;sig2=T6Tj3rDvBrLayVy1es_WtA&amp;dtab=5\" target=\"_blank\"><\/a>" }, "geometry": { "type": "Point", "coordinates": [ 6.159136, 51.378345, 0.0 ] } },
{ "type": "Feature", "properties": { "Name": "Superior-Is, Helmond", "Description": "<div dir=\"ltr\">Superior-Is,<br>Steenovenweg 3<br>5708 HN,<br>Helmond,<br>The Netherlands<br><\/div>" }, "geometry": { "type": "Point", "coordinates": [ 5.625621, 51.47422, 0.0 ] } },
{ "type": "Feature", "properties": { "Name": "Switch, Amsterdam", "Description": "<div dir=\"ltr\">Switch (Internet Unie),<br>Voorheen KPN Qwest,<br>Lemelerbergweg 28,<br>1101 AH, Amsterdam<br><\/div>" }, "geometry": { "type": "Point", "coordinates": [ 4.939063, 52.303959, 0.0 ] } },
{ "type": "Feature", "properties": { "Name": "TCN SIG Mediacentrale - Groningen", "Description": "<div dir=\"ltr\">TCN SIG Mediacentrale,<br>Helperpark 282,<br>9723 ZA,<br>Groningen<\/div>" }, "geometry": { "type": "Point", "coordinates": [ 6.588643, 53.203659, 0.0 ] } },
{ "type": "Feature", "properties": { "Name": "TCN SIG Telehouse, Groningen", "Description": "TCN SIG Telehouse,<br>Zernikelaan 16,<br>Groningen" }, "geometry": { "type": "Point", "coordinates": [ 6.531903, 53.244034, 0.0 ] } },
{ "type": "Feature", "properties": { "Name": "TeDoc, Wolvega (Weststellingwerf)", "Description": "<div dir=\"ltr\">TeDoc,<br>Kerkstraat 26,<br>8471 CD,<br>Wolvega (Weststellingwerf),<br>The Netherlands<br><\/div>" }, "geometry": { "type": "Point", "coordinates": [ 5.99685, 52.876492, 0.0 ] } },
{ "type": "Feature", "properties": { "Name": "Telecity AMS1, Amsterdam", "Description": "Telecity,<br>AMS1,<br>Kruislaan 411,<br>Science Park,<br>1098 SJ,<br>Amsterdam" }, "geometry": { "type": "Point", "coordinates": [ 4.95006, 52.35675, 0.0 ] } },
{ "type": "Feature", "properties": { "Name": "Telecity AMS2, amsterdam", "Description": "Telecity,<br>AMS2,<br>Kuiperbergweg 13,<br>Zuid-Oost,<br>1101 AE,<br>Amsterdam" }, "geometry": { "type": "Point", "coordinates": [ 4.937966, 52.303066, 0.0 ] } },
{ "type": "Feature", "properties": { "Name": "Telecity AMS3, Amsterdam", "Description": "Telecity,<br>AMS3,<br>Gyroscoopweg 2,<br>Teleport,<br>Amsterdam" }, "geometry": { "type": "Point", "coordinates": [ 4.838877, 52.397011, 0.0 ] } },
{ "type": "Feature", "properties": { "Name": "Telecity AMS4, Amsterdam", "Description": "Telecity,<br>AMS4,<br>H.J.E. Wenckebachweg 127,<br>1096 AM,<br>Amstel Business Park,<br>Amsterdam<br><a href=\"http:\/\/wwww.telecity.com\/\" target=\"_blank\">www.telecity.com<\/a><br>" }, "geometry": { "type": "Point", "coordinates": [ 4.928797, 52.336601, 0.0 ] } },
{ "type": "Feature", "properties": { "Name": "Telecity AMS5, Amsterdam", "Description": "Telecity AMS5,<br>Schepenbergweg 40.<br>1105 AT,<br>Amsterdam Zuidoost,<br>Netherlands<br>" }, "geometry": { "type": "Point", "coordinates": [ 4.944947, 52.293503, 0.0 ] } },
{ "type": "Feature", "properties": { "Name": "Tele2 (Amsterdam-1), Amsterdam", "Description": "<div dir=\"ltr\">Tele2 (Amsterdam-1),<br>Paalbergweg 36,<br>1105 BV,<br>Amsterdam,<br>The Netherlands<br><\/div>" }, "geometry": { "type": "Point", "coordinates": [ 4.955011, 52.29924, 0.0 ] } },
{ "type": "Feature", "properties": { "Name": "Tele2 (Amsterdam-2, Gyrocenter), Amsterdam", "Description": "<div dir=\"ltr\">Tele2 (Amsterdam-2, Gyrocenter),<br>Gyrocenter,<br>Gyroscoopweg 148\/152-154,<br>1042 AZ,<br>Amsterdam<\/div>" }, "geometry": { "type": "Point", "coordinates": [ 4.842181, 52.401215, 0.0 ] } },
{ "type": "Feature", "properties": { "Name": "Tele2 (POP), Alkmaar", "Description": "<div dir=\"ltr\">Tele2 (POP),<br>Kitmanstraat 7,<br>1812 PL,<br>Alkmaar,<br>The Netherlands<br><\/div>" }, "geometry": { "type": "Point", "coordinates": [ 4.762938, 52.620171, 0.0 ] } },
{ "type": "Feature", "properties": { "Name": "Tele2 (POP), Amersfoort", "Description": "<div dir=\"ltr\">Tele2 (POP),<br>Modemweg 15 unit 6,<br>3821 BS,<br>Amersfoort,<br>The Netherlands<br><\/div>" }, "geometry": { "type": "Point", "coordinates": [ 5.418941, 52.17197, 0.0 ] } },
{ "type": "Feature", "properties": { "Name": "Tele2 (POP), Arnhem", "Description": "<div dir=\"ltr\">Tele2 (POP),<br>Delta 95,<br>6825 MN,<br>Arnhem,<br>The Netherlands<br><\/div>" }, "geometry": { "type": "Point", "coordinates": [ 5.971944, 51.975826, 0.0 ] } },
{ "type": "Feature", "properties": { "Name": "Tele2 (POP), Breda", "Description": "<div dir=\"ltr\">Tele2 (POP),<br>Druivenstraat 59-61,<br>4816 KB,<br>Breda,<br>The Netherlands<br><\/div>" }, "geometry": { "type": "Point", "coordinates": [ 4.808987, 51.599663, 0.0 ] } },
{ "type": "Feature", "properties": { "Name": "Tele2, Den Bosch", "Description": "Tele2,<br>Australielaan 16,<br>5232 BB,<br>Den Bosch\/'s-Hertogenbosch,<br>The Netherlands<br>" }, "geometry": { "type": "Point", "coordinates": [ 5.34194, 51.708755, 0.0 ] } },
{ "type": "Feature", "properties": { "Name": "Tele2 (POP), Deventer", "Description": "<div dir=\"ltr\">Tele2 (POP),<br>Hanzeweg 53-55,<br>7418 AT,<br>Deventer,<br>The Netherlands<br><\/div>" }, "geometry": { "type": "Point", "coordinates": [ 6.175945, 52.249271, 0.0 ] } },
{ "type": "Feature", "properties": { "Name": "Tele2 (POP), Eindhoven", "Description": "<div dir=\"ltr\">Tele2 POP,<br>Quinten Matsyslaan 65c,<br>5642 JC,<br>Eindhoven,<br> The Netherlands<br><\/div>" }, "geometry": { "type": "Point", "coordinates": [ 5.515424, 51.435444, 0.0 ] } },
{ "type": "Feature", "properties": { "Name": "Tele2 (POP), Enschede", "Description": "<div dir=\"ltr\">Tele2 (POP),<br>Palatijn 19-21,<br>7521 PN,<br>Enschede,<br>The Netherlands<br><\/div>" }, "geometry": { "type": "Point", "coordinates": [ 6.843863, 52.238598, 0.0 ] } },
{ "type": "Feature", "properties": { "Name": "Tele2 (POP), Groningen", "Description": "<div dir=\"ltr\">Tele2 (POP),<br>Wismarweg 25,<br>9723 HC,<br>Groningen,<br>The Netherlands<br><\/div>" }, "geometry": { "type": "Point", "coordinates": [ 6.610892, 53.219921, 0.0 ] } },
{ "type": "Feature", "properties": { "Name": "Tele2 (POP), Haarlem", "Description": "<div dir=\"ltr\">Tele2 (POP),<br>Kuppersweg 67,<br>2031 EB,<br>Haarlem,<br>The Netherlands<br><\/div>" }, "geometry": { "type": "Point", "coordinates": [ 4.654798, 52.391014, 0.0 ] } },
{ "type": "Feature", "properties": { "Name": "Tele2 (POP), Heerlen", "Description": "<div dir=\"ltr\">Tele2 (POP),<br>Parallelweg 10,<br>6411 ND,<br>Heerlen,<br>The Netherlands<br><\/div>" }, "geometry": { "type": "Point", "coordinates": [ 5.96098, 50.892872, 0.0 ] } },
{ "type": "Feature", "properties": { "Name": "Tele2 (POP), Leeuwarden", "Description": "<div dir=\"ltr\">Tele2 (POP),<br>Zuidvliet 228a,<br>8921 BN,<br>Leeuwarden,<br>The Netherlands<br><\/div>" }, "geometry": { "type": "Point", "coordinates": [ 5.808978, 53.202614, 0.0 ] } },
{ "type": "Feature", "properties": { "Name": "Tele2 (POP), Maastricht", "Description": "<div dir=\"ltr\">Tele2 (POP),<br>Kotterweg 15,<br>6222 NR,<br>Maastricht,<br>The Netherlands<br><\/div>" }, "geometry": { "type": "Point", "coordinates": [ 5.717369, 50.875893, 0.0 ] } },
{ "type": "Feature", "properties": { "Name": "Tele2 (POP), Nijmegen", "Description": "<div dir=\"ltr\">Tele2 (POP),<br>Metaalweg 21,<br>6551 AC,<br>Nijmegen,<br>The Netherlands<br><\/div>" }, "geometry": { "type": "Point", "coordinates": [ 5.813141, 51.850929, 0.0 ] } },
{ "type": "Feature", "properties": { "Name": "Tele2, Rijswijk\/Den Haag", "Description": "<div dir=\"ltr\">Tele2,<br>Van Gijnstraat 26,<br>2288 GB,<br>Rijswijk,<br>The Netherlands<br><\/div>" }, "geometry": { "type": "Point", "coordinates": [ 4.333426, 52.036381, 0.0 ] } },
{ "type": "Feature", "properties": { "Name": "Tele2, Utrecht", "Description": "<div dir=\"ltr\">Tele2,<br>Niels Bohrweg 135,<br>3542 CA,<br>Utrecht,<br>The Netherlands<br><\/div>" }, "geometry": { "type": "Point", "coordinates": [ 5.049898, 52.121929, 0.0 ] } },
{ "type": "Feature", "properties": { "Name": "Tele2, Venlo", "Description": "<div dir=\"ltr\">Tele2,<br>Van Coehoornstraat 8,<br>5916 PH,<br>Venlo,<br>The Netherlands<br><\/div>" }, "geometry": { "type": "Point", "coordinates": [ 6.184553, 51.38929, 0.0 ] } },
{ "type": "Feature", "properties": { "Name": "Tele2, Zwolle", "Description": "<div dir=\"ltr\">Tele2,<br>Popovstraat 5 a\/b,<br>8013 RK,<br>Zwolle,<br>The Netherlands<br><\/div>" }, "geometry": { "type": "Point", "coordinates": [ 6.139646, 52.492722, 0.0 ] } },
{ "type": "Feature", "properties": { "Name": "Tennet, Lelystad", "Description": "Tennet Lelystad (cabine),<br>380 kV station Lelystad-Noord,<br>Meanderplein 1,<br>(kruising IJsselmeerdijk 100),<br>Lelystad<br>" }, "geometry": { "type": "Point", "coordinates": [ 5.535403, 52.575825, 0.0 ] } },
{ "type": "Feature", "properties": { "Name": "Tennet, Maasbracht", "Description": "Tennet Maasbracht (cabine),<br>Broekstraat.<br>Maasbracht, Netherlands<br>" }, "geometry": { "type": "Point", "coordinates": [ 5.915816, 51.148758, 0.0 ] } },
{ "type": "Feature", "properties": { "Name": "Tennet Louwsmeer, Tytjerk", "Description": "<div dir=\"ltr\">Tennet Louwsmeer (basement),<br>110kV onderstation Louwsmeer,<br>Rustenburgweg 1a,<br>Tytjerk<\/div>" }, "geometry": { "type": "Point", "coordinates": [ 5.877171, 53.191223, 0.0 ] } },
{ "type": "Feature", "properties": { "Name": "Tennet, Vierverlaten", "Description": "Tennet Vierverlaten (outdoor cabinet),<br>220kV onderstation Vierverlaten,<br>Hoendiep 330,<br>Hoogkerk<br>" }, "geometry": { "type": "Point", "coordinates": [ 6.476589, 53.210037, 0.0 ] } },
{ "type": "Feature", "properties": { "Name": "Terremark, Amsterdam", "Description": "Terremark, Amsterdam,<br>Cateringweg 5<br>1118 AM,<br>Schiphol,<br>The Netherlands<br><br>" }, "geometry": { "type": "Point", "coordinates": [ 4.800008, 52.322464, 0.0 ] } },
{ "type": "Feature", "properties": { "Name": "The Datacenter Group, Delft", "Description": "<div dir=\"ltr\">The Datacenter Group,<br>First phase completed early 2012,<br>Rotterdamseweg,<br>Technoplois Science Port Holland,<br>Delft<\/div>" }, "geometry": { "type": "Point", "coordinates": [ 4.377966, 51.986336, 0.0 ] } },
{ "type": "Feature", "properties": { "Name": "Transpolis, Hoofddorp", "Description": "Transpolis,<br>Polarisavenue 81,<br>2132,<br>Haarlemmermeer,<br>Hoofddorp<br>" }, "geometry": { "type": "Point", "coordinates": [ 4.712426, 52.292809, 0.0 ] } },
{ "type": "Feature", "properties": { "Name": "Unet, Almere", "Description": "<div dir=\"ltr\">Unet Almere,<br>Transistorstraat 7,<br>1322 CJ,<br>Almere<br><\/div>" }, "geometry": { "type": "Point", "coordinates": [ 5.181246, 52.3465, 0.0 ] } },
{ "type": "Feature", "properties": { "Name": "Unilogic, Sittard", "Description": "Unilogic,<br>Bergerweg 120,<br>6135 KD,<br>Sittard<br><a href=\"http:\/\/www.unilogicnetworks.net\/\" target=\"_blank\">www.unilogicnetworks.net<\/a><br>" }, "geometry": { "type": "Point", "coordinates": [ 5.841193, 50.995499, 0.0 ] } },
{ "type": "Feature", "properties": { "Name": "UPC, Amsterdam", "Description": "UPC, Chello, Enertel,<br>Kabelweg 51,<br>Amsterdam" }, "geometry": { "type": "Point", "coordinates": [ 4.846752, 52.394169, 0.0 ] } },
{ "type": "Feature", "properties": { "Name": "Verizon AMS1, Amsterdam", "Description": "Verizon AMS1,<br>Verizon,<br>voorheen MCI, MFS,<br>Joan Muyskenweg 24<br>1096 CJ,<br>Amsterdam<br>" }, "geometry": { "type": "Point", "coordinates": [ 4.913394, 52.332714, 0.0 ] } },
{ "type": "Feature", "properties": { "Name": "Verizon AMS2, Amsterdam", "Description": "Verion AMS2,<br>Verizon,<br>voorheen MCI,<br>Kollenbergweg 13,<br>1101,<br>Zuid-Oost,<br>Amsterdam<br>" }, "geometry": { "type": "Point", "coordinates": [ 4.935626, 52.305283, 0.0 ] } },
{ "type": "Feature", "properties": { "Name": "Verizon, Rotterdam", "Description": "Verizon,<br>voorheen MCI,<br>Koperstraat 6,<br>3067 GL,<br>Rotterdam<br>" }, "geometry": { "type": "Point", "coordinates": [ 4.55119, 51.95013, 0.0 ] } },
{ "type": "Feature", "properties": { "Name": "Viatel, Amsterdam", "Description": "Viatel,<br>Schipluidenlaan 6,<br>1062 EB,<br>op hoek met Delflandlaan 4,<br>Amsterdam<br>" }, "geometry": { "type": "Point", "coordinates": [ 4.840406, 52.356518, 0.0 ] } },
{ "type": "Feature", "properties": { "Name": "Vodafone, Eindhoven", "Description": "Vodafone Eindhoven,<br>Ekkersrijt 4401,<br>Son<br>" }, "geometry": { "type": "Point", "coordinates": [ 5.469291, 51.501419, 0.0 ] } },
{ "type": "Feature", "properties": { "Name": "Vodafone, Leidschenveen", "Description": "Vodafone Leidschenveen,<br>Tiber 48,<br>2267 CD.<br>Leischenveen<br>" }, "geometry": { "type": "Point", "coordinates": [ 4.391122, 52.065186, 0.0 ] } },
{ "type": "Feature", "properties": { "Name": "WideXS, Amsterdam", "Description": "WiseXS, ION IP,<br>Gyroscoopweg 54,<br>1042 AC,<br>Amsterdam<br><a href=\"http:\/\/www.widexs.nl\/\" target=\"_blank\">www.widexs.nl<\/a><br>" }, "geometry": { "type": "Point", "coordinates": [ 4.842038, 52.400253, 0.0 ] } },
{ "type": "Feature", "properties": { "Name": "World Port Center, Rotterdam", "Description": "Wilhelminakade 909,<br>3072 AP,<br>Wilhelminapier,<br>Rotterdam<br>" }, "geometry": { "type": "Point", "coordinates": [ 4.486474, 51.905384, 0.0 ] } },
{ "type": "Feature", "properties": { "Name": "WTC, Amsterdam", "Description": "World Trade Center,<br>6th floor,<br>Strawinskylaan 1,<br>1077 XW,<br>Amsterdam<br>" }, "geometry": { "type": "Point", "coordinates": [ 4.874483, 52.340668, 0.0 ] } },
{ "type": "Feature", "properties": { "Name": "@Xit, Breda", "Description": "@Xit (Axit),<br>Takkebijsters 9b,<br>4817 BL,<br>Breda<br><a href=\"http:\/\/www.axit.nl\/\" target=\"_blank\">www.axit.nl<\/a>" }, "geometry": { "type": "Point", "coordinates": [ 4.823715, 51.594753, 0.0 ] } },
{ "type": "Feature", "properties": { "Name": "Zeelandnet, Kamperland", "Description": "Het Rip 9,<br>Kamperland,<br>4493 RL,<br>Noord Beveland<br><a href=\"http:\/\/www.zeelandnet.nl\/\" target=\"_blank\">www.zeelandnet.nl<\/a><br>" }, "geometry": { "type": "Point", "coordinates": [ 3.700111, 51.573708, 0.0 ] } },
{ "type": "Feature", "properties": { "Name": "Equinix AM3", "Description": "<div dir=\"ltr\">Equinix AM3<br>Science Park 610<br>1098 XH<br>Amsterdam<br>The Netherlands<\/div>" }, "geometry": { "type": "Point", "coordinates": [ 4.961599, 52.354797, 0.0 ] } }
]
}
